CODE 	STATION NAME 	Lat	Long	Alt	desamp	 anntr	diuramp	diurmax	seasamp	peakdiur	seasmax	monthmax	err	p
AT0002R                              	 Illmitz    	47.7666	16.7666	117	16.41378	0.00951	19.60346	42.60228	28.4935	15	44.07587	6	0.00821	0.24906
AT0005R 	Vorhegg  	46.6777	12.9722	1020	25.58931	0.02609	11.43794	43.08314	20.24384	16	45.90996	6	0.01046	0.014
AT0030R 	Pillersdorf bei Retz 	48.7211	15.9422	315	19.48905	0.02858	15.37416	40.72337	28.07781	15	44.38534	5	0.00875	0.00142
AT0032R 	 Sulzberg   	47.5291	9.9266	1020	31.23175	0.01192	5.98813	44.26079	22.45776	16	51.87985	6	0.01022	0.24578
AT0034G 	Sonnblick       	47.5444	12.9583	3106	16.11707	0.00343	1.48179	51.84105	15.69769	3	58.80146	5	0.00655	0.60184
AT0037R 	Zillertaler Alpen    	47.1369	11.87	1970	21.83907	0.00234	2.53576	48.10747	15.26545	2	54.84046	4	0.00777	0.76353
AT0038R 	 Gerlitzen     	46.6936	13.915	1895	17.17493	0.01006	2.18352	48.5539	17.88426	23	56.22705	6	0.00838	0.23218
AT0040R	Masenberg    	47.348	15.8822	1170	28.8452	0.01648	2.80409	44.21053	22.98152	15	53.10218	6	0.01081	0.13013
AT0041R 	Haunsberg  	47.973	13.161	730	26.5629	0.00387	9.52589	41.50865	26.66408	15	48.25926	6	0.00954	0.68604
AT0042R 	 Heidenreichstein 	48.8786	15.4666	570	16.53376	0.02951	18.2326	40.60769	23.6464	15	41.5574	5	0.00826	5.15E-04
AT0043R 	Forsthof     	48.1061	15.9194	581	30.22963	0.06166	9.32303	39.03738	28.18945	15	46.81871	6	0.01092	<0.0001
AT0044R 	Graz Platte    	47.113	15.4705	651	26.68614	0.01247	7.47939	41.15922	34.16692	16	52.0987	6	0.01244	0.31834
AT0045R 	 Dunkelsteinerwald 	48.3711	15.5466	320	20.82742	0.02969	17.75136	38.47769	25.10344	15	39.22394	5	0.0093	0.00181
AT0046R 	Gaenserndorf    	48.3347	16.7305	161	20.32769	0.04094	20.62784	39.92226	26.07258	15	39.9443	5	0.01006	<0.0001
AT0047R	Stixneusiedl    	48.5083	16.6766	240	18.43405	0.01441	17.50445	40.45429	27.30664	15	42.98942	5	0.00865	0.09847
BE0001R	Offagne  	49.8777	5.2036	430	32.0514	0.02922	14.66496	37.9097	18.89121	15	38.46547	6	0.0106	0.00675
BE0032R 	Eupen 	50.6294	6.027	295	25.31955	0.0125	14.32947	36.50799	18.08099	14	36.81075	6	0.01093	0.255
BE0035R 	 Vezin   	50.5033	4.9894	160	20.09241	0.00622	19.60365	34.28872	16.66848	15	30.80074	6	0.00909	0.49492
CH0001R	Jungfraujoch	46.56416	7.85166	3578	10.75674	0.00521	0.31876	38.63589	11.74313	22	44.12559	5	0.00449	0.24814
CH0002R	Payerne             	46.8166	6.95	510	24.01422	0.02805	25.63052	40.3037	26.26997	15	39.56782	6	0.00912	0.00262
CH0003R 	 T?nikon     	47.4833	8.9	540	24.68982	0.01721	20.85793	39.80311	27.15254	15	41.10082	6	0.00959	0.07538
CH0004R 	 Chaumont   	47.5111	6.9805	1130	29.76138	0.00643	4.96171	45.37033	21.80115	16	53.70455	6	0.01032	0.53422
CH0005R	 Rigi              	47.6944	8.4655	1030	26.69775	0.02086	6.81992	45.30721	23.58107	16	53.69897	6	0.0106	0.05145
CZ0001R 	Svratouch	49.7333	16.3333	737	27.4072	-0.00936	6.83441	39.86326	23.98772	14	45.44534	5	0.01085	0.39016
CZ0003R 	Ko?etice   	49.5833	15.8333	534	24.16022	0.00895	15.40138	41.16748	23.62209	14	43.16448	5	0.00851	0.29502
DE0001R 	 Westerland     	54.9255	8.3097	12	17.19655	0.02734	7.30142	37.73218	21.16782	16	43.78756	5	0.00932	0.00403
DE0002R	Langenbrügge     	52.8022	10.7594	74	20.1619	0.02697	17.77307	36.32045	23.99813	15	37.52772	5	0.00895	0.00315
DE0003R 	 Schauinsland 	47.9147	7.9086	1205	27.24874	0.01033	3.06464	44.88357	19.86678	16	53.00195	6	0.01054	0.32935
DE0007R	Neuglobsow 	53.1666	13.333	62	17.87111	0.01871	17.01901	35.81072	25.53844	15	38.89581	5	0.00955	0.0526
DE0009R	Zingst       	54.4333	12.7333	1	16.18054	0.01788	9.1743	34.67891	22.13466	15	40.04531	5	0.00793	0.02604
DK0031R 	Ulborg	56.2833	8.4333	10	16.14384	-5.64E-04	8.61555	35.13395	18.69235	15	40.24145	5	0.00899	0.95009
DK0041R	Lille Valby 	55.6869	12.1261	10	15.69787	0.04478	11.40246	32.66113	19.32312	13	35.81103	5	0.00786	<0.0001
EE0009R 	 Lahemaa 	59.5	25.9	32	16.13364	-0.00651	11.39614	33.44484	18.31815	15	38.48724	4	0.0071	0.36115
EE0011R 	Vilsandy   	58.3833	21.8166	6	19.25471	-0.04341	6.60697	36.65993	16.8425	16	40.84063	5	0.00812	<0.0001
ES0007R 	 Víznar  	37.2333	-3.5333	1265	21.32082	-0.02901	8.82392	47.51488	20.68479	15	53.36707	7	0.01363	0.03547
FI0009R                                                  	Ut? 	59.7791	21.3772	7	18.66025	-0.00695	3.60842	37.21296	15.08154	16	41.47443	5	0.00812	0.39344
FI0017R                                         	Virolahti II 	60.5266	27.6861	4	18.55185	0.02305	11.31771	35.3934	18.25415	14	40.11187	4	0.01002	0.02316
FI0022R                                         	 Oulanka 	66.3202	29.4016	310	14.48056	1.11E-03	4.20862	34.30736	20.45374	14	44.96213	4	0.00621	0.8582
FI0037R                              	?ht?ri II    	62.5833	24.1833	180	16.66405	0.004	7.89907	34.74918	21.33111	14	43.84053	4	0.00844	0.63598
FR0008R                               	 Donon       	48.5	7.1333	775	26.52583	0.01547	4.86089	41.66284	20.65894	16	49.07978	8	0.01238	0.21398
FR0009R                                    	 Revin	49.9	4.6333	390	26.52583	0.00361	12.70933	36.2886	21.39029	15	38.6057	4	0.01238	0.71145
GB0002R                          	Eskdalemuir  	55.313	-3.2041	243	22.63552	0.01118	9.40226	31.12152	11.87137	15	33.1127	5	0.00835	0.18315
GB0006R                          	 Lough Navar  	54.443	-7.87	126	25.05955	0.01848	10.58102	29.6506	12.14986	14	30.88878	4	0.00924	0.04777
GB0013R                              	 Yarner Wood 	50.5963	-3.713	119	22.70108	0.01548	9.88489	35.60519	14.98289	15	39.91416	4	0.00824	0.06287
GB0014R                        	High Muffles     	54.3344	-0.8075	267	22.88868	0.02192	7.11669	32.85168	16.54064	15	37.5565	5	0.00951	0.02291
GB0015R                        	 Strath Vaich Dam 	54.7344	-4.7744	270	16.09197	0.01687	4.90332	37.59111	12.88293	14	42.61232	4	0.00813	0.04037
GB0031R                               	 Aston Hill   	52.5038	-3.3305	370	25.16503	0.05416	5.16825	34.91369	12.18995	15	39.10772	4	0.0088	<0.0001
GB0032R                            	Bottesford     	52.9294	-0.8152	32	18.1966	0.03044	13.55262	31.88917	13.36853	15	30.51042	4	0.00831	3.73E-04
GB0033R                                  	Bush      	55.8586	-3.205	180	16.55117	0.01359	5.73433	31.32657	10.86913	15	34.70545	4	0.00701	0.0548
GB0034R                               	Glazebury  	53.4586	-2.4663	21	19.81189	0.04784	14.7055	28.57676	14.80836	15	27.69284	4	0.00796	<0.0001
GB0036R                                	 Harwell  	51.573	-1.3222	137	23.89234	0.01993	12.30383	33.89216	13.0188	15	33.57214	5	0.00933	0.03466
GB0037R .                            	Ladybower Res	53.3988	-1.7533	420	28.60577	-0.00892	5.75766	30.58913	13.27858	15	35.04229	5	0.01049	0.39708
GB0038R                        	 Lullington Heath   	50.7927	0.1794	120	21.4808	0.01445	11.18832	35.99649	16.31793	15	38.02809	5	0.00944	0.12859
GB0039R                            	 Sibton       	52.2938	1.463	46	17.92648	0.0356	13.2128	33.48744	16.4288	14	34.21382	5	0.00948	2.22E-04
GB0044R                              	Somerton  	51.2311	-3.4805	55	18.50168	-0.0014	13.33127	36.22966	13.31241	14	35.89197	4	0.00939	0.86978
GB0045R                              	Wicken Fen    	52.2983	-0.2927	5	26.31683	0.09409	16.51015	33.96812	16.46866	15	32.31623	5	0.00963	<0.0001
GR0002R                                  	 Finokalia 	35.5	26.1666	0	24.22043	-0.00727	4.22699	51.34034	20.54613	19	58.36265	6	0.01648	0.66026
HU0002R                         	 K-puszta      	46.9666	19.5833	125	31.16318	-0.10314	22.60631	45.06635	27.25156	15	44.45618	6	0.01329	<0.0001
IE0031R                              	Mace Head   	53.1666	-9.5	15	18.29109	0.01749	2.90977	37.8074	14.14207	16	43.93711	4	0.00929	0.06445
IT0001R                              	 Montelibretti 	42.1	12.6333	48	19.93019	0.01534	34.44163	44.91238	28.07913	15	38.9564	7	0.00875	0.0821
LT0015R	Preila	55.35	21.666	5	26.00912	0.03545	8.02935	34.50456	20.00566	15	38.58787	5	0.00831	<0.0001
LV0010R                                   	 Rucava 	56.2166	21.2166	18	22.4605	-0.00567	10.57696	30.61044	13.41413	15	31.21665	4	0.00981	0.56421
MT0001R                          	 Giordan lighthouse	36.1	14.2	160	27.81062	0.00807	4.37297	53.341	13.96559	16	57.40911	5	0.0112	0.4729
NL0009R                          	 Kollumerwaard  	53.3338	6.2772	1	18.09349	0.01357	11.86959	30.65157	19.12442	15	33.37402	5	0.00851	0.11348
NL0010R                            	Vredepeel 	51.5411	5.8536	28	13.54773	0.01177	17.48978	29.61124	18.4781	15	28.52318	5	0.00695	0.09295
NO0001R                                   	Birkenes	58.3833	8.25	190	14.49186	0.0085	11.86889	34.56533	14.39499	14	35.72218	4	0.00676	0.21073
NO0015R                                	 Tustervatn 	65.8333	13.9166	439	12.20442	0.00595	3.56422	37.14291	20.22692	14	47.38958	4	0.0055	0.28122
NO0039R                                 	 K?rvatn    	62.7833	8.8833	210	12.7526	-0.03529	10.1429	35.56417	23.099	13	42.85172	4	0.00606	<0.0001
NO0042G               	Spitsbergen. Zeppelinfjell  	78.9	11.8833	474	26.95869	0.03752	0.20694	34.11635	13.17747	4	40.09637	3	0.00958	1.52E-04
NO0043R                           	 Prestebakke     	59	11.5333	160	18.48602	0.0388	9.2755	34.16762	16.33354	14	37.82531	5	0.00753	<0.0001
NO0052R                                  	Sandve   	59.2	5.2	15	12.3819	0.01593	5.8282	36.37537	12.86069	14	40.91702	4	0.00644	0.01489
NO0055R                                 	 Karasjok   	69.4666	25.2166	333	14.0776	0.02784	2.82952	34.57925	19.81121	15	44.48433	4	0.00657	<0.0001
NO0056R                                     	Hurdal 	60.3666	4.6666	300	15.43412	0.00658	8.45323	32.35542	17.40089	14	37.19404	5	0.00748	0.38097
PL0002R                             	 Jarczew    	51.8166	21.9833	180	14.81431	0.02006	17.31319	37.10526	21.83532	14	37.87754	5	0.00752	0.00874
PL0003R                                 	 Sniezka  	50.7333	15.7333	1603	27.08264	-0.00541	1.94487	41.30824	18.15314	19	49.57177	5	0.01228	0.66019
PL0004R                                	 Leba   	54.75	17.5333	2	15.72356	-0.0088	10.83715	37.8	22.21927	14	42.84508	5	0.00761	0.24969
PL0005R                                  	Diabla Gora	54.15	22.6666	157	23.94795	0.00778	13.80931	37.31458	20.76124	14	39.21162	4	0.01012	0.44377
PT0004R                             	 Monte Velho 	38.8333	-8.8	43	37.01892	0.04494	17.86052	41.26314	13.13251	16	39.44817	4	0.0215	0.03908
SE0011R                                   	Vavihill	56.1666	13.15	175	17.38352	0.02835	8.1747	34.76687	20.97775	14	40.48555	5	0.00863	0.00133
SE0012R                              	Aspvreten 	58.8	17.3833	20	13.31083	0.02656	11.50365	36.66369	18.69058	15	40.51813	5	0.00754	6.07E-04
SE0013R                                    	Esrange 	67.8833	21.666	475	14.36597	-1.67E-04	2.73753	34.38861	18.95777	15	44.48499	4	0.00706	0.98122
SE0032R                           	 Norra-Kvill  	57.8166	15.5666	261	19.32068	0.03355	6.71223	35.84564	19.99193	14	42.10972	5	0.00796	<0.0001
SE0035R                                   	Vindeln  	64.25	19.7666	225	20.32459	-0.00141	9.29377	33.19647	21.73652	14	41.8677	4	0.00766	0.85448
SI0008R                               	 Iskrba   	45.5666	14.8666	520	16.28506	-0.00298	29.5931	44.30498	19.2086	14	38.23736	4	0.00849	0.72624
SI0031R                                	 Zarodnje  	46.4286	15.033	770	23.4075	0.02695	8.58322	38.58774	26.31552	14	46.06727	5	0.01116	0.01723
SI0032R                                  	 Krvavec  	46.2994	14.5386	1740	20.69944	-0.00273	3.23098	50.46047	19.49093	20	58.10637	6	0.02015	0.76092
SI0033R                                 	 Kovk    	46.1286	15.1138	600	27.88676	0.02877	8.49415	39.63483	26.97843	14	46.24037	5	0.01232	0.02123
SK0004R                                     	 Stará Lesná	49.15	20.2833	808	25.70441	0.08408	14.70781	38.54911	20.86744	14	41.12747	4	0.01344	<0.0001
SK0006R                                         	 Starina  	49.5	22.2666	345	27.56337	0.05223	13.2798	38.69598	15.61593	14	41.12747	4	0.01344	<0.0001
